{
    "records": [

        {   "sitename": "諾亞方舟益智遊戲",
            "county": "台中市西屯區臺灣大道二段910號五樓之一",
            "longitude": "120.65168766434047",
            "latitude": "24.16211468308642"
    },
        {   "sitename": "貓腳印-台中店",
            "county": "台中市西屯區文心路三段296之1號2樓",
            "longitude": "120.65832469790968",
            "latitude": "24.170608096353693"
    },
        {   "sitename": "空鳴飛船玩具坊",
            "county": "台中市西屯區文心路三段296之1號2樓",
            "longitude": "120.65841052859487",
            "latitude": "24.170715766968357"
    },
        {   "sitename": "樂遊wow",
            "county": "向上路五段123號",
            "longitude": "120.61276081325205",
            "latitude": "24.14980110157692"
    },
        {   "sitename": "鬧鬧TCG桌遊",
            "county": "南京西路163號B1",
            "longitude": "121.51323392675597",
            "latitude": "25.054406751139318"
    },
        {   "sitename": "原紹玩具",
            "county": "民生東路五段184-6號",
            "longitude": "121.5639092690847",
            "latitude": "25.058628363774098"
    },
        {   "sitename": "新航玩具 Shin Hang",
            "county": "大安路二段134號",
            "longitude": "121.54592244209837",
            "latitude": "25.030076736634086"
    },
        {   "sitename": "卡牌屋桌上遊戲",
            "county": "重慶南路一段43號二樓",
            "longitude": "121.51342984209843",
            "latitude": "25.04522380541719"
    },
        {   "sitename": "卡士多遊戲屋",
            "county": "承德路三段36號三樓",
            "longitude": "121.518108913263",
            "latitude": "25.064832646468645"
    },
        {   "sitename": "好好玩遊戲王卡片專賣店",
            "county": "福德三路58號",
            "longitude": "120.3282897132347",
            "latitude": "22.620371094139948"
    },
        {   "sitename": "與貓有約 Board Game",
            "county": "富民路15號3樓",
            "longitude": "120.30505709974209",
            "latitude": "22.657418103666057"
    },
        {   "sitename": "雙子星桌上遊戲專賣店",
            "county": "陸橋里田單街17號",
            "longitude": "120.2806229978923",
            "latitude": "22.628629452264754"
    }
]
}